{"type":"FeatureCollection","name":"stops_rail_gtfs_netex","features":[{"type":"Feature","properties":{"sap_id":"rail:trenord_regione_lombardia:S01022","stop_id":"S01022","stop_name":"Milano Tibaldi - Bocconi","dominant_mode":"rail","modes":"rail","operators":"Trenord","lines":"R31;S9","line_count":2,"service_count":2,"service_record_count":2,"total_freq_per_hour":7.0,"max_line_freq_per_hour":4.0,"sources":"Trenord official GTFS 2026-04-29"},"geometry":{"type":"Point","coordinates":[9.184083,45.443694]}},{"type":"Feature","properties":{"sap_id":"rail:trenord_regione_lombardia:S01032","stop_id":"S01032","stop_name":"Milano Romolo","dominant_mode":"rail","modes":"rail","operators":"Trenord","lines":"R31;S9","line_count":2,"service_count":2,"service_record_count":2,"total_freq_per_hour":7.0,"max_line_freq_per_hour":4.0,"sources":"Trenord official GTFS 2026-04-29"},"geometry":{"type":"Point","coordinates":[9.167404,45.443211]}},{"type":"Feature","properties":{"sap_id":"rail:trenord_regione_lombardia:S01033","stop_id":"S01033","stop_name":"Legnano","dominant_mode":"rail","modes":"rail","operators":"Trenord","lines":"R21;RE 5;S5","line_count":3,"service_count":3,"service_record_count":3,"total_freq_per_hour":8.0,"max_line_freq_per_hour":4.0,"sources":"Trenord official GTFS 2026-04-29"},"geometry":{"type":"Point","coordinates":[8.910837,45.593698]}},{"type":"Feature","properties":{"sap_id":"rail:trenord_regione_lombardia:S01034","stop_id":"S01034","stop_name":"Canegrate","dominant_mode":"rail","modes":"rail","operators":"Trenord","lines":"S5","line_count":1,"service_count":1,"service_record_count":1,"total_freq_per_hour":4.0,"max_line_freq_per_hour":4.0,"sources":"Trenord official GTFS 2026-04-29"},"geometry":{"type":"Point","coordinates":[8.926718,45.569322]}},{"type":"Feature","properties":{"sap_id":"rail:trenord_regione_lombardia:S01035","stop_id":"S01035","stop_name":"Parabiago","dominant_mode":"rail","modes":"rail","operators":"Trenord","lines":"R21;S5","line_count":2,"service_count":2,"service_record_count":2,"total_freq_per_hour":5.0,"max_line_freq_per_hour":4.0,"sources":"Trenord official GTFS 2026-04-29"},"geometry":{"type":"Point","coordinates":[8.946562,45.552506]}},{"type":"Feature","properties":{"sap_id":"rail:trenord_regione_lombardia:S01036","stop_id":"S01036","stop_name":"Vanzago Pogliano","dominant_mode":"rail","modes":"rail","operators":"Trenord","lines":"S5","line_count":1,"service_count":1,"service_record_count":1,"total_freq_per_hour":4.0,"max_line_freq_per_hour":4.0,"sources":"Trenord official GTFS 2026-04-29"},"geometry":{"type":"Point","coordinates":[8.995853,45.525447]}},{"type":"Feature","properties":{"sap_id":"rail:trenord_regione_lombardia:S01037","stop_id":"S01037","stop_name":"Rho","dominant_mode":"rail","modes":"rail","operators":"Trenord","lines":"S11;S5;S6","line_count":3,"service_count":3,"service_record_count":3,"total_freq_per_hour":10.0,"max_line_freq_per_hour":4.0,"sources":"Trenord official GTFS 2026-04-29"},"geometry":{"type":"Point","coordinates":[9.043581,45.524071]}},{"type":"Feature","properties":{"sap_id":"rail:trenord_regione_lombardia:S01039","stop_id":"S01039","stop_name":"Rho Fiera Milano","dominant_mode":"rail","modes":"rail","operators":"Trenord","lines":"R21;R23;RE 4;RE 5;S11;S5;S6","line_count":7,"service_count":7,"service_record_count":7,"total_freq_per_hour":17.0,"max_line_freq_per_hour":4.0,"sources":"Trenord official GTFS 2026-04-29"},"geometry":{"type":"Point","coordinates":[9.087869,45.521505]}},{"type":"Feature","properties":{"sap_id":"rail:trenord_regione_lombardia:S01040","stop_id":"S01040","stop_name":"Magenta","dominant_mode":"rail","modes":"rail","operators":"Trenord","lines":"S6","line_count":1,"service_count":1,"service_record_count":1,"total_freq_per_hour":4.0,"max_line_freq_per_hour":4.0,"sources":"Trenord official GTFS 2026-04-29"},"geometry":{"type":"Point","coordinates":[8.880741,45.468092]}},{"type":"Feature","properties":{"sap_id":"rail:trenord_regione_lombardia:S01041","stop_id":"S01041","stop_name":"Corbetta S.Stefano","dominant_mode":"rail","modes":"rail","operators":"Trenord","lines":"S6","line_count":1,"service_count":1,"service_record_count":1,"total_freq_per_hour":4.0,"max_line_freq_per_hour":4.0,"sources":"Trenord official GTFS 2026-04-29"},"geometry":{"type":"Point","coordinates":[8.918085,45.481089]}},{"type":"Feature","properties":{"sap_id":"rail:trenord_regione_lombardia:S01042","stop_id":"S01042","stop_name":"Vittuone Arluno","dominant_mode":"rail","modes":"rail","operators":"Trenord","lines":"S6","line_count":1,"service_count":1,"service_record_count":1,"total_freq_per_hour":4.0,"max_line_freq_per_hour":4.0,"sources":"Trenord official GTFS 2026-04-29"},"geometry":{"type":"Point","coordinates":[8.947603,45.490995]}},{"type":"Feature","properties":{"sap_id":"rail:trenord_regione_lombardia:S01058","stop_id":"S01058","stop_name":"Pregnana M.","dominant_mode":"rail","modes":"rail","operators":"Trenord","lines":"S6","line_count":1,"service_count":1,"service_record_count":1,"total_freq_per_hour":4.0,"max_line_freq_per_hour":4.0,"sources":"Trenord official GTFS 2026-04-29"},"geometry":{"type":"Point","coordinates":[9.003479,45.51028]}},{"type":"Feature","properties":{"sap_id":"rail:trenord_regione_lombardia:S01059","stop_id":"S01059","stop_name":"Albairate","dominant_mode":"rail","modes":"rail","operators":"Trenord","lines":"R31;S9","line_count":2,"service_count":2,"service_record_count":2,"total_freq_per_hour":7.0,"max_line_freq_per_hour":4.0,"sources":"Trenord official GTFS 2026-04-29"},"geometry":{"type":"Point","coordinates":[8.958227,45.404354]}},{"type":"Feature","properties":{"sap_id":"rail:trenord_regione_lombardia:S01062","stop_id":"S01062","stop_name":"Abbiategrasso","dominant_mode":"rail","modes":"rail","operators":"Trenord","lines":"R31","line_count":1,"service_count":1,"service_record_count":1,"total_freq_per_hour":3.0,"max_line_freq_per_hour":3.0,"sources":"Trenord official GTFS 2026-04-29"},"geometry":{"type":"Point","coordinates":[8.920445,45.397589]}},{"type":"Feature","properties":{"sap_id":"rail:trenord_regione_lombardia:S01063","stop_id":"S01063","stop_name":"Gaggiano","dominant_mode":"rail","modes":"rail","operators":"Trenord","lines":"S9","line_count":1,"service_count":1,"service_record_count":1,"total_freq_per_hour":4.0,"max_line_freq_per_hour":4.0,"sources":"Trenord official GTFS 2026-04-29"},"geometry":{"type":"Point","coordinates":[9.031338,45.408791]}},{"type":"Feature","properties":{"sap_id":"rail:trenord_regione_lombardia:S01064","stop_id":"S01064","stop_name":"Corsico","dominant_mode":"rail","modes":"rail","operators":"Trenord","lines":"S9","line_count":1,"service_count":1,"service_record_count":1,"total_freq_per_hour":4.0,"max_line_freq_per_hour":4.0,"sources":"Trenord official GTFS 2026-04-29"},"geometry":{"type":"Point","coordinates":[9.109018,45.436052]}},{"type":"Feature","properties":{"sap_id":"rail:trenord_regione_lombardia:S01065","stop_id":"S01065","stop_name":"Trezzano Sul Naviglio","dominant_mode":"rail","modes":"rail","operators":"Trenord","lines":"S9","line_count":1,"service_count":1,"service_record_count":1,"total_freq_per_hour":4.0,"max_line_freq_per_hour":4.0,"sources":"Trenord official GTFS 2026-04-29"},"geometry":{"type":"Point","coordinates":[9.066996,45.420163]}},{"type":"Feature","properties":{"sap_id":"rail:trenord_regione_lombardia:S01066","stop_id":"S01066","stop_name":"Milano Cadorna","dominant_mode":"rail","modes":"rail","operators":"Trenord","lines":"R16;R17;R22;R27;RE 1;RE 54;S3;S4","line_count":8,"service_count":8,"service_record_count":8,"total_freq_per_hour":28.0,"max_line_freq_per_hour":4.0,"sources":"Trenord official GTFS 2026-04-29"},"geometry":{"type":"Point","coordinates":[9.175596,45.468359]}},{"type":"Feature","properties":{"sap_id":"rail:trenord_regione_lombardia:S01067","stop_id":"S01067","stop_name":"Milano Domodossola","dominant_mode":"rail","modes":"rail","operators":"Trenord","lines":"R16;R17;R22;R27;RE 1;RE 54;S3;S4","line_count":8,"service_count":8,"service_record_count":8,"total_freq_per_hour":28.0,"max_line_freq_per_hour":4.0,"sources":"Trenord official GTFS 2026-04-29"},"geometry":{"type":"Point","coordinates":[9.162241,45.480896]}},{"type":"Feature","properties":{"sap_id":"rail:trenord_regione_lombardia:S01069","stop_id":"S01069","stop_name":"Milano Quarto Oggiaro","dominant_mode":"rail","modes":"rail","operators":"Trenord","lines":"S1;S3","line_count":2,"service_count":2,"service_record_count":2,"total_freq_per_hour":8.0,"max_line_freq_per_hour":4.0,"sources":"Trenord official GTFS 2026-04-29"},"geometry":{"type":"Point","coordinates":[9.145623,45.519185]}},{"type":"Feature","properties":{"sap_id":"rail:trenord_regione_lombardia:S01070","stop_id":"S01070","stop_name":"Novate Milanese","dominant_mode":"rail","modes":"rail","operators":"Trenord","lines":"S1;S3","line_count":2,"service_count":2,"service_record_count":2,"total_freq_per_hour":8.0,"max_line_freq_per_hour":4.0,"sources":"Trenord official GTFS 2026-04-29"},"geometry":{"type":"Point","coordinates":[9.132299,45.533067]}},{"type":"Feature","properties":{"sap_id":"rail:trenord_regione_lombardia:S01071","stop_id":"S01071","stop_name":"Bollate Centro","dominant_mode":"rail","modes":"rail","operators":"Trenord","lines":"S1;S13;S3","line_count":3,"service_count":3,"service_record_count":3,"total_freq_per_hour":12.0,"max_line_freq_per_hour":4.0,"sources":"Trenord official GTFS 2026-04-29"},"geometry":{"type":"Point","coordinates":[9.123,45.542795]}},{"type":"Feature","properties":{"sap_id":"rail:trenord_regione_lombardia:S01072","stop_id":"S01072","stop_name":"Bollate Nord","dominant_mode":"rail","modes":"rail","operators":"Trenord","lines":"S1;S3","line_count":2,"service_count":2,"service_record_count":2,"total_freq_per_hour":8.0,"max_line_freq_per_hour":4.0,"sources":"Trenord official GTFS 2026-04-29"},"geometry":{"type":"Point","coordinates":[9.112022,45.552694]}},{"type":"Feature","properties":{"sap_id":"rail:trenord_regione_lombardia:S01073","stop_id":"S01073","stop_name":"Garbagnate Parco Delle Groane","dominant_mode":"rail","modes":"rail","operators":"Trenord","lines":"S1;S3","line_count":2,"service_count":2,"service_record_count":2,"total_freq_per_hour":8.0,"max_line_freq_per_hour":4.0,"sources":"Trenord official GTFS 2026-04-29"},"geometry":{"type":"Point","coordinates":[9.090977,45.571089]}},{"type":"Feature","properties":{"sap_id":"rail:trenord_regione_lombardia:S01074","stop_id":"S01074","stop_name":"Garbagnate Milanese","dominant_mode":"rail","modes":"rail","operators":"Trenord","lines":"S1;S13;S3","line_count":3,"service_count":3,"service_record_count":3,"total_freq_per_hour":12.0,"max_line_freq_per_hour":4.0,"sources":"Trenord official GTFS 2026-04-29"},"geometry":{"type":"Point","coordinates":[9.080171,45.580271]}},{"type":"Feature","properties":{"sap_id":"rail:trenord_regione_lombardia:S01075","stop_id":"S01075","stop_name":"Cesate","dominant_mode":"rail","modes":"rail","operators":"Trenord","lines":"S1;S3","line_count":2,"service_count":2,"service_record_count":2,"total_freq_per_hour":8.0,"max_line_freq_per_hour":4.0,"sources":"Trenord official GTFS 2026-04-29"},"geometry":{"type":"Point","coordinates":[9.066427,45.590796]}},{"type":"Feature","properties":{"sap_id":"rail:trenord_regione_lombardia:S01076","stop_id":"S01076","stop_name":"Caronno Pertusella","dominant_mode":"rail","modes":"rail","operators":"Trenord","lines":"S1;S3","line_count":2,"service_count":2,"service_record_count":2,"total_freq_per_hour":8.0,"max_line_freq_per_hour":4.0,"sources":"Trenord official GTFS 2026-04-29"},"geometry":{"type":"Point","coordinates":[9.057898,45.5982]}},{"type":"Feature","properties":{"sap_id":"rail:trenord_regione_lombardia:S01077","stop_id":"S01077","stop_name":"Saronno Sud","dominant_mode":"rail","modes":"rail","operators":"Trenord","lines":"S1;S3;S9","line_count":3,"service_count":3,"service_record_count":3,"total_freq_per_hour":12.0,"max_line_freq_per_hour":4.0,"sources":"Trenord official GTFS 2026-04-29"},"geometry":{"type":"Point","coordinates":[9.045529,45.612351]}},{"type":"Feature","properties":{"sap_id":"rail:trenord_regione_lombardia:S01078","stop_id":"S01078","stop_name":"Milano Affori","dominant_mode":"rail","modes":"rail","operators":"Trenord","lines":"R16;S2;S4","line_count":3,"service_count":3,"service_record_count":3,"total_freq_per_hour":11.0,"max_line_freq_per_hour":4.0,"sources":"Trenord official GTFS 2026-04-29"},"geometry":{"type":"Point","coordinates":[9.167481,45.520444]}},{"type":"Feature","properties":{"sap_id":"rail:trenord_regione_lombardia:S01079","stop_id":"S01079","stop_name":"Milano Bruzzano Parco Nord","dominant_mode":"rail","modes":"rail","operators":"Trenord","lines":"S2;S4","line_count":2,"service_count":2,"service_record_count":2,"total_freq_per_hour":8.0,"max_line_freq_per_hour":4.0,"sources":"Trenord official GTFS 2026-04-29"},"geometry":{"type":"Point","coordinates":[9.172806,45.533746]}},{"type":"Feature","properties":{"sap_id":"rail:trenord_regione_lombardia:S01082","stop_id":"S01082","stop_name":"Paderno Dugnano","dominant_mode":"rail","modes":"rail","operators":"Trenord","lines":"S2;S4","line_count":2,"service_count":2,"service_record_count":2,"total_freq_per_hour":8.0,"max_line_freq_per_hour":4.0,"sources":"Trenord official GTFS 2026-04-29"},"geometry":{"type":"Point","coordinates":[9.161357,45.564985]}},{"type":"Feature","properties":{"sap_id":"rail:trenord_regione_lombardia:S01083","stop_id":"S01083","stop_name":"Palazzolo Milanese","dominant_mode":"rail","modes":"rail","operators":"Trenord","lines":"S2;S4","line_count":2,"service_count":2,"service_record_count":2,"total_freq_per_hour":8.0,"max_line_freq_per_hour":4.0,"sources":"Trenord official GTFS 2026-04-29"},"geometry":{"type":"Point","coordinates":[9.156622,45.581]}},{"type":"Feature","properties":{"sap_id":"rail:trenord_regione_lombardia:S01084","stop_id":"S01084","stop_name":"Varedo","dominant_mode":"rail","modes":"rail","operators":"Trenord","lines":"S2;S4","line_count":2,"service_count":2,"service_record_count":2,"total_freq_per_hour":8.0,"max_line_freq_per_hour":4.0,"sources":"Trenord official GTFS 2026-04-29"},"geometry":{"type":"Point","coordinates":[9.153331,45.595605]}},{"type":"Feature","properties":{"sap_id":"rail:trenord_regione_lombardia:S01104","stop_id":"S01104","stop_name":"Pieve Emanuele","dominant_mode":"rail","modes":"rail","operators":"Trenord","lines":"S13","line_count":1,"service_count":1,"service_record_count":1,"total_freq_per_hour":4.0,"max_line_freq_per_hour":4.0,"sources":"Trenord official GTFS 2026-04-29"},"geometry":{"type":"Point","coordinates":[9.203513,45.339661]}},{"type":"Feature","properties":{"sap_id":"rail:trenord_regione_lombardia:S01109","stop_id":"S01109","stop_name":"Cormano-Cusano Milanino","dominant_mode":"rail","modes":"rail","operators":"Trenord","lines":"S2;S4","line_count":2,"service_count":2,"service_record_count":2,"total_freq_per_hour":8.0,"max_line_freq_per_hour":4.0,"sources":"Trenord official GTFS 2026-04-29"},"geometry":{"type":"Point","coordinates":[9.174093,45.545711]}},{"type":"Feature","properties":{"sap_id":"rail:trenord_regione_lombardia:S01112","stop_id":"S01112","stop_name":"Cesano Boscone","dominant_mode":"rail","modes":"rail","operators":"Trenord","lines":"S9","line_count":1,"service_count":1,"service_record_count":1,"total_freq_per_hour":4.0,"max_line_freq_per_hour":4.0,"sources":"Trenord official GTFS 2026-04-29"},"geometry":{"type":"Point","coordinates":[9.091401,45.430335]}},{"type":"Feature","properties":{"sap_id":"rail:trenord_regione_lombardia:S01135","stop_id":"S01135","stop_name":"Rescaldina","dominant_mode":"rail","modes":"rail","operators":"Trenord","lines":"R27;RE 51","line_count":2,"service_count":2,"service_record_count":2,"total_freq_per_hour":6.0,"max_line_freq_per_hour":3.0,"sources":"Trenord official GTFS 2026-04-29"},"geometry":{"type":"Point","coordinates":[8.946664,45.622296]}},{"type":"Feature","properties":{"sap_id":"rail:trenord_regione_lombardia:S01325","stop_id":"S01325","stop_name":"Sesto S.Giovanni","dominant_mode":"rail","modes":"rail","operators":"Trenord","lines":"R14;S11;S7;S8;S9","line_count":5,"service_count":5,"service_record_count":5,"total_freq_per_hour":17.0,"max_line_freq_per_hour":4.0,"sources":"Trenord official GTFS 2026-04-29"},"geometry":{"type":"Point","coordinates":[9.238858,45.541307]}},{"type":"Feature","properties":{"sap_id":"rail:trenord_regione_lombardia:S01326","stop_id":"S01326","stop_name":"Milano Greco Pirelli","dominant_mode":"rail","modes":"rail","operators":"Trenord","lines":"R14;R38;R4;RE 13;S11;S7;S8;S9","line_count":8,"service_count":8,"service_record_count":8,"total_freq_per_hour":25.0,"max_line_freq_per_hour":4.0,"sources":"Trenord official GTFS 2026-04-29"},"geometry":{"type":"Point","coordinates":[9.214162,45.512875]}},{"type":"Feature","properties":{"sap_id":"rail:trenord_regione_lombardia:S01492","stop_id":"S01492","stop_name":"Milano Forlanini","dominant_mode":"rail","modes":"rail","operators":"Trenord","lines":"R38;RE 13;RE 8;S5;S6;S9","line_count":6,"service_count":6,"service_record_count":6,"total_freq_per_hour":17.0,"max_line_freq_per_hour":4.0,"sources":"Trenord official GTFS 2026-04-29"},"geometry":{"type":"Point","coordinates":[9.237008,45.463089]}},{"type":"Feature","properties":{"sap_id":"rail:trenord_regione_lombardia:S01624","stop_id":"S01624","stop_name":"S.Donato Milanese","dominant_mode":"rail","modes":"rail","operators":"Trenord","lines":"S1;S12","line_count":2,"service_count":2,"service_record_count":2,"total_freq_per_hour":8.0,"max_line_freq_per_hour":4.0,"sources":"Trenord official GTFS 2026-04-29"},"geometry":{"type":"Point","coordinates":[9.254251,45.419184]}},{"type":"Feature","properties":{"sap_id":"rail:trenord_regione_lombardia:S01630","stop_id":"S01630","stop_name":"Milano S.Cristoforo","dominant_mode":"rail","modes":"rail","operators":"Trenord","lines":"R31;S9","line_count":2,"service_count":2,"service_record_count":2,"total_freq_per_hour":7.0,"max_line_freq_per_hour":4.0,"sources":"Trenord official GTFS 2026-04-29"},"geometry":{"type":"Point","coordinates":[9.130089,45.442562]}},{"type":"Feature","properties":{"sap_id":"rail:trenord_regione_lombardia:S01632","stop_id":"S01632","stop_name":"Milano Scalo Romana","dominant_mode":"rail","modes":"rail","operators":"Trenord","lines":"R31;S9","line_count":2,"service_count":2,"service_record_count":2,"total_freq_per_hour":7.0,"max_line_freq_per_hour":4.0,"sources":"Trenord official GTFS 2026-04-29"},"geometry":{"type":"Point","coordinates":[9.21313,45.445782]}},{"type":"Feature","properties":{"sap_id":"rail:trenord_regione_lombardia:S01633","stop_id":"S01633","stop_name":"Milano Porta Vittoria","dominant_mode":"rail","modes":"rail","operators":"Trenord","lines":"S1;S12;S13;S2;S5;S6","line_count":6,"service_count":6,"service_record_count":6,"total_freq_per_hour":24.0,"max_line_freq_per_hour":4.0,"sources":"Trenord official GTFS 2026-04-29"},"geometry":{"type":"Point","coordinates":[9.223925,45.459468]}},{"type":"Feature","properties":{"sap_id":"rail:trenord_regione_lombardia:S01639","stop_id":"S01639","stop_name":"Milano Villapizzone","dominant_mode":"rail","modes":"rail","operators":"Trenord","lines":"R6;RE 2;S11;S5;S6","line_count":5,"service_count":5,"service_record_count":5,"total_freq_per_hour":12.0,"max_line_freq_per_hour":4.0,"sources":"Trenord official GTFS 2026-04-29"},"geometry":{"type":"Point","coordinates":[9.150918,45.502058]}},{"type":"Feature","properties":{"sap_id":"rail:trenord_regione_lombardia:S01640","stop_id":"S01640","stop_name":"Milano Certosa","dominant_mode":"rail","modes":"rail","operators":"Trenord","lines":"RE 13;S11;S5;S6","line_count":4,"service_count":4,"service_record_count":4,"total_freq_per_hour":11.0,"max_line_freq_per_hour":4.0,"sources":"Trenord official GTFS 2026-04-29"},"geometry":{"type":"Point","coordinates":[9.135369,45.507337]}},{"type":"Feature","properties":{"sap_id":"rail:trenord_regione_lombardia:S01642","stop_id":"S01642","stop_name":"Milano Bovisa Politecnico","dominant_mode":"rail","modes":"rail","operators":"Trenord","lines":"R16;R17;R22;R27;RE 1;RE 51;RE 54;S1;S12;S13;S2;S3;S4","line_count":13,"service_count":13,"service_record_count":13,"total_freq_per_hour":49.0,"max_line_freq_per_hour":4.0,"sources":"Trenord official GTFS 2026-04-29"},"geometry":{"type":"Point","coordinates":[9.159253,45.502569]}},{"type":"Feature","properties":{"sap_id":"rail:trenord_regione_lombardia:S01643","stop_id":"S01643","stop_name":"Milano Lancetti","dominant_mode":"rail","modes":"rail","operators":"Trenord","lines":"S1;S12;S13;S2;S5;S6","line_count":6,"service_count":6,"service_record_count":6,"total_freq_per_hour":24.0,"max_line_freq_per_hour":4.0,"sources":"Trenord official GTFS 2026-04-29"},"geometry":{"type":"Point","coordinates":[9.175915,45.495387]}},{"type":"Feature","properties":{"sap_id":"rail:trenord_regione_lombardia:S01645","stop_id":"S01645","stop_name":"Milano Porta Garibaldi","dominant_mode":"rail","modes":"rail","operators":"Trenord","lines":"R14;R21;R23;R34;R6;RE 2;RE 5;RE 51;S11;S7;S8","line_count":11,"service_count":11,"service_record_count":11,"total_freq_per_hour":27.0,"max_line_freq_per_hour":4.0,"sources":"Trenord official GTFS 2026-04-29"},"geometry":{"type":"Point","coordinates":[9.188006,45.484167]}},{"type":"Feature","properties":{"sap_id":"rail:trenord_regione_lombardia:S01647","stop_id":"S01647","stop_name":"Milano Porta Garibaldi Passante","dominant_mode":"rail","modes":"rail","operators":"Trenord","lines":"S1;S12;S13;S2;S5;S6","line_count":6,"service_count":6,"service_record_count":6,"total_freq_per_hour":24.0,"max_line_freq_per_hour":4.0,"sources":"Trenord official GTFS 2026-04-29"},"geometry":{"type":"Point","coordinates":[9.187681,45.484304]}},{"type":"Feature","properties":{"sap_id":"rail:trenord_regione_lombardia:S01648","stop_id":"S01648","stop_name":"Milano Repubblica","dominant_mode":"rail","modes":"rail","operators":"Trenord","lines":"S1;S12;S13;S2;S5;S6","line_count":6,"service_count":6,"service_record_count":6,"total_freq_per_hour":24.0,"max_line_freq_per_hour":4.0,"sources":"Trenord official GTFS 2026-04-29"},"geometry":{"type":"Point","coordinates":[9.198881,45.480004]}},{"type":"Feature","properties":{"sap_id":"rail:trenord_regione_lombardia:S01649","stop_id":"S01649","stop_name":"Milano Porta Venezia","dominant_mode":"rail","modes":"rail","operators":"Trenord","lines":"S1;S12;S13;S2;S5;S6","line_count":6,"service_count":6,"service_record_count":6,"total_freq_per_hour":24.0,"max_line_freq_per_hour":4.0,"sources":"Trenord official GTFS 2026-04-29"},"geometry":{"type":"Point","coordinates":[9.208073,45.476221]}},{"type":"Feature","properties":{"sap_id":"rail:trenord_regione_lombardia:S01650","stop_id":"S01650","stop_name":"Milano Dateo","dominant_mode":"rail","modes":"rail","operators":"Trenord","lines":"S1;S12;S13;S2;S5;S6","line_count":6,"service_count":6,"service_record_count":6,"total_freq_per_hour":24.0,"max_line_freq_per_hour":4.0,"sources":"Trenord official GTFS 2026-04-29"},"geometry":{"type":"Point","coordinates":[9.217041,45.468154]}},{"type":"Feature","properties":{"sap_id":"rail:trenord_regione_lombardia:S01700","stop_id":"S01700","stop_name":"Milano Centrale","dominant_mode":"rail","modes":"rail","operators":"Trenord","lines":"RE 11;RE 2;RE 4;RE 51;RE 6;RE 8;RE 80","line_count":7,"service_count":7,"service_record_count":7,"total_freq_per_hour":21.0,"max_line_freq_per_hour":4.0,"sources":"Trenord official GTFS 2026-04-29"},"geometry":{"type":"Point","coordinates":[9.20329,45.487012]}},{"type":"Feature","properties":{"sap_id":"rail:trenord_regione_lombardia:S01701","stop_id":"S01701","stop_name":"Milano Lambrate","dominant_mode":"rail","modes":"rail","operators":"Trenord","lines":"R34;R38;R4;R6;RE 11;RE 13;RE 2;RE 6;RE 8;S9","line_count":10,"service_count":10,"service_record_count":10,"total_freq_per_hour":26.0,"max_line_freq_per_hour":4.0,"sources":"Trenord official GTFS 2026-04-29"},"geometry":{"type":"Point","coordinates":[9.236799,45.484722]}},{"type":"Feature","properties":{"sap_id":"rail:trenord_regione_lombardia:S01703","stop_id":"S01703","stop_name":"Pioltello Limito","dominant_mode":"rail","modes":"rail","operators":"Trenord","lines":"R4;RE 2;RE 6;S5;S6","line_count":5,"service_count":5,"service_record_count":5,"total_freq_per_hour":17.0,"max_line_freq_per_hour":4.0,"sources":"Trenord official GTFS 2026-04-29"},"geometry":{"type":"Point","coordinates":[9.329494,45.486115]}},{"type":"Feature","properties":{"sap_id":"rail:trenord_regione_lombardia:S01704","stop_id":"S01704","stop_name":"Vignate","dominant_mode":"rail","modes":"rail","operators":"Trenord","lines":"S5;S6","line_count":2,"service_count":2,"service_record_count":2,"total_freq_per_hour":7.0,"max_line_freq_per_hour":4.0,"sources":"Trenord official GTFS 2026-04-29"},"geometry":{"type":"Point","coordinates":[9.376343,45.494285]}},{"type":"Feature","properties":{"sap_id":"rail:trenord_regione_lombardia:S01705","stop_id":"S01705","stop_name":"Melzo","dominant_mode":"rail","modes":"rail","operators":"Trenord","lines":"S5;S6","line_count":2,"service_count":2,"service_record_count":2,"total_freq_per_hour":8.0,"max_line_freq_per_hour":4.0,"sources":"Trenord official GTFS 2026-04-29"},"geometry":{"type":"Point","coordinates":[9.418451,45.50203]}},{"type":"Feature","properties":{"sap_id":"rail:trenord_regione_lombardia:S01706","stop_id":"S01706","stop_name":"Trecella","dominant_mode":"rail","modes":"rail","operators":"Trenord","lines":"S5;S6","line_count":2,"service_count":2,"service_record_count":2,"total_freq_per_hour":8.0,"max_line_freq_per_hour":4.0,"sources":"Trenord official GTFS 2026-04-29"},"geometry":{"type":"Point","coordinates":[9.481012,45.513063]}},{"type":"Feature","properties":{"sap_id":"rail:trenord_regione_lombardia:S01707","stop_id":"S01707","stop_name":"Cassano D'Adda","dominant_mode":"rail","modes":"rail","operators":"Trenord","lines":"S5;S6","line_count":2,"service_count":2,"service_record_count":2,"total_freq_per_hour":8.0,"max_line_freq_per_hour":4.0,"sources":"Trenord official GTFS 2026-04-29"},"geometry":{"type":"Point","coordinates":[9.512782,45.514463]}},{"type":"Feature","properties":{"sap_id":"rail:trenord_regione_lombardia:S01715","stop_id":"S01715","stop_name":"Segrate","dominant_mode":"rail","modes":"rail","operators":"Trenord","lines":"S5;S6","line_count":2,"service_count":2,"service_record_count":2,"total_freq_per_hour":8.0,"max_line_freq_per_hour":4.0,"sources":"Trenord official GTFS 2026-04-29"},"geometry":{"type":"Point","coordinates":[9.298598,45.480741]}},{"type":"Feature","properties":{"sap_id":"rail:trenord_regione_lombardia:S01722","stop_id":"S01722","stop_name":"Pozzuolo Martesana","dominant_mode":"rail","modes":"rail","operators":"Trenord","lines":"S5;S6","line_count":2,"service_count":2,"service_record_count":2,"total_freq_per_hour":8.0,"max_line_freq_per_hour":4.0,"sources":"Trenord official GTFS 2026-04-29"},"geometry":{"type":"Point","coordinates":[9.456691,45.508576]}},{"type":"Feature","properties":{"sap_id":"rail:trenord_regione_lombardia:S01751","stop_id":"S01751","stop_name":"Turbigo","dominant_mode":"rail","modes":"rail","operators":"Trenord","lines":"R27","line_count":1,"service_count":1,"service_record_count":1,"total_freq_per_hour":2.0,"max_line_freq_per_hour":2.0,"sources":"Trenord official GTFS 2026-04-29"},"geometry":{"type":"Point","coordinates":[8.738819,45.52825]}},{"type":"Feature","properties":{"sap_id":"rail:trenord_regione_lombardia:S01752","stop_id":"S01752","stop_name":"Castano Primo","dominant_mode":"rail","modes":"rail","operators":"Trenord","lines":"R27","line_count":1,"service_count":1,"service_record_count":1,"total_freq_per_hour":2.0,"max_line_freq_per_hour":2.0,"sources":"Trenord official GTFS 2026-04-29"},"geometry":{"type":"Point","coordinates":[8.772717,45.555929]}},{"type":"Feature","properties":{"sap_id":"rail:trenord_regione_lombardia:S01753","stop_id":"S01753","stop_name":"Vanzaghello-Magnago","dominant_mode":"rail","modes":"rail","operators":"Trenord","lines":"R27","line_count":1,"service_count":1,"service_record_count":1,"total_freq_per_hour":2.0,"max_line_freq_per_hour":2.0,"sources":"Trenord official GTFS 2026-04-29"},"geometry":{"type":"Point","coordinates":[8.787788,45.577694]}},{"type":"Feature","properties":{"sap_id":"rail:trenord_regione_lombardia:S01801","stop_id":"S01801","stop_name":"Locate Triulzi","dominant_mode":"rail","modes":"rail","operators":"Trenord","lines":"S13","line_count":1,"service_count":1,"service_record_count":1,"total_freq_per_hour":4.0,"max_line_freq_per_hour":4.0,"sources":"Trenord official GTFS 2026-04-29"},"geometry":{"type":"Point","coordinates":[9.221671,45.359933]}},{"type":"Feature","properties":{"sap_id":"rail:trenord_regione_lombardia:S01802","stop_id":"S01802","stop_name":"Villamaggiore","dominant_mode":"rail","modes":"rail","operators":"Trenord","lines":"S13","line_count":1,"service_count":1,"service_record_count":1,"total_freq_per_hour":4.0,"max_line_freq_per_hour":4.0,"sources":"Trenord official GTFS 2026-04-29"},"geometry":{"type":"Point","coordinates":[9.19049,45.320377]}},{"type":"Feature","properties":{"sap_id":"rail:trenord_regione_lombardia:S01820","stop_id":"S01820","stop_name":"Milano Rogoredo","dominant_mode":"rail","modes":"rail","operators":"Trenord","lines":"R31;R34;R38;RE 11;RE 13;RE 8;S1;S12;S13;S2","line_count":10,"service_count":10,"service_record_count":10,"total_freq_per_hour":29.0,"max_line_freq_per_hour":4.0,"sources":"Trenord official GTFS 2026-04-29"},"geometry":{"type":"Point","coordinates":[9.238484,45.433589]}},{"type":"Feature","properties":{"sap_id":"rail:trenord_regione_lombardia:S01821","stop_id":"S01821","stop_name":"S. Giuliano Milanese","dominant_mode":"rail","modes":"rail","operators":"Trenord","lines":"S1;S12","line_count":2,"service_count":2,"service_record_count":2,"total_freq_per_hour":8.0,"max_line_freq_per_hour":4.0,"sources":"Trenord official GTFS 2026-04-29"},"geometry":{"type":"Point","coordinates":[9.28636,45.391458]}},{"type":"Feature","properties":{"sap_id":"rail:trenord_regione_lombardia:S01822","stop_id":"S01822","stop_name":"Melegnano","dominant_mode":"rail","modes":"rail","operators":"Trenord","lines":"S1;S12","line_count":2,"service_count":2,"service_record_count":2,"total_freq_per_hour":8.0,"max_line_freq_per_hour":4.0,"sources":"Trenord official GTFS 2026-04-29"},"geometry":{"type":"Point","coordinates":[9.319683,45.356575]}},{"type":"Feature","properties":{"sap_id":"rail:trenord_regione_lombardia:S01823","stop_id":"S01823","stop_name":"S.Zenone Al Lambro","dominant_mode":"rail","modes":"rail","operators":"Trenord","lines":"S1","line_count":1,"service_count":1,"service_record_count":1,"total_freq_per_hour":4.0,"max_line_freq_per_hour":4.0,"sources":"Trenord official GTFS 2026-04-29"},"geometry":{"type":"Point","coordinates":[9.361355,45.337909]}},{"type":"Feature","properties":{"sap_id":"rail:trenord_regione_lombardia:S01830","stop_id":"S01830","stop_name":"Borgolombardo","dominant_mode":"rail","modes":"rail","operators":"Trenord","lines":"S1;S12","line_count":2,"service_count":2,"service_record_count":2,"total_freq_per_hour":8.0,"max_line_freq_per_hour":4.0,"sources":"Trenord official GTFS 2026-04-29"},"geometry":{"type":"Point","coordinates":[9.270465,45.404507]}},{"type":"Feature","properties":{"sap_id":"rail:trenord_regione_lombardia:S01868","stop_id":"S01868","stop_name":"Chignolo Po","dominant_mode":"rail","modes":"rail","operators":"Trenord","lines":"R37","line_count":1,"service_count":1,"service_record_count":1,"total_freq_per_hour":1.0,"max_line_freq_per_hour":1.0,"sources":"Trenord official GTFS 2026-04-29"},"geometry":{"type":"Point","coordinates":[9.494103,45.1608]}},{"type":"Feature","properties":{"sap_id":"rail:trenord_regione_lombardia:S01869","stop_id":"S01869","stop_name":"Lambrinia","dominant_mode":"rail","modes":"rail","operators":"Trenord","lines":"R37","line_count":1,"service_count":1,"service_record_count":1,"total_freq_per_hour":1.0,"max_line_freq_per_hour":1.0,"sources":"Trenord official GTFS 2026-04-29"},"geometry":{"type":"Point","coordinates":[9.527346,45.164278]}},{"type":"Feature","properties":{"sap_id":"rail:trenord_regione_lombardia:S01934","stop_id":"S01934","stop_name":"Ceriano Laghetto-Solaro","dominant_mode":"rail","modes":"rail","operators":"Trenord","lines":"S9","line_count":1,"service_count":1,"service_record_count":1,"total_freq_per_hour":4.0,"max_line_freq_per_hour":4.0,"sources":"Trenord official GTFS 2026-04-29"},"geometry":{"type":"Point","coordinates":[9.080098,45.624993]}}]}